[{"district_name":"Bridgeport School District","name":"Park City Magnet School","organization_type":"Public Schools","organization_code":"0151711","address":"1526 Chopsey Hill Rd.","town":"Bridgeport","zipcode":"06606-2422","phone":"203-576-7547","prekindergarten":"1","kindergarten":"1","grade_1":"1","grade_2":"1","grade_3":"1","grade_4":"1","grade_5":"1","grade_6":"1","grade_7":"1","grade_8":"1","grade_9":"0","grade_10":"0","grade_11":"0","grade_12":"0","student_open_date":"1984-07-01T00:00:00.000","interdistrict_magnet":"0"}
,{"district_name":"Canton School District","name":"Canton School District","organization_type":"Public School Districts","organization_code":"0230011","address":"4 Market Street","town":"Collinsville","zipcode":"06022","phone":"860-693-7704","prekindergarten":"1","kindergarten":"1","grade_1":"1","grade_2":"1","grade_3":"1","grade_4":"1","grade_5":"1","grade_6":"1","grade_7":"1","grade_8":"1","grade_9":"1","grade_10":"1","grade_11":"1","grade_12":"1","student_open_date":"1996-07-01T00:00:00.000","interdistrict_magnet":"0"}
,{"district_name":"Shelton School District","name":"Sunnyside School","organization_type":"Public Schools","organization_code":"1260611","address":"418 River Rd.","town":"Shelton","zipcode":"06484-4524","phone":"203-922-3021","prekindergarten":"0","kindergarten":"1","grade_1":"1","grade_2":"1","grade_3":"1","grade_4":"1","grade_5":"0","grade_6":"0","grade_7":"0","grade_8":"0","grade_9":"0","grade_10":"0","grade_11":"0","grade_12":"0","student_open_date":"1990-07-01T00:00:00.000","interdistrict_magnet":"0"}
,{"district_name":"Stratford School District","name":"David Wooster Middle School","organization_type":"Public Schools","organization_code":"1385211","address":"150 Lincoln Street","town":"Stratford","zipcode":"06615-4000","phone":"203-385-4275","prekindergarten":"0","kindergarten":"0","grade_1":"0","grade_2":"0","grade_3":"0","grade_4":"0","grade_5":"0","grade_6":"0","grade_7":"1","grade_8":"1","grade_9":"0","grade_10":"0","grade_11":"0","grade_12":"0","student_open_date":"1984-07-01T00:00:00.000","interdistrict_magnet":"0"}
,{"district_name":"Bridgeport School District","name":"Jettie S. Tisdale School","organization_type":"Public Schools","organization_code":"0152211","address":"250 Hollister Avenue","town":"Bridgeport","zipcode":"06607","phone":"203-576-8037","prekindergarten":"1","kindergarten":"1","grade_1":"1","grade_2":"1","grade_3":"1","grade_4":"1","grade_5":"1","grade_6":"1","grade_7":"1","grade_8":"1","grade_9":"0","grade_10":"0","grade_11":"0","grade_12":"0","student_open_date":"1984-07-01T00:00:00.000","interdistrict_magnet":"0","geocoded_column":{"latitude":"41.17893","longitude":"-73.16113","human_address":"{\"address\": \"250 Hollister Avenue\", \"city\": \"Bridgeport\", \"state\": \"CT\", \"zip\": \"06607\"}"},":@computed_region_nhmp_cq6b":"109",":@computed_region_snd5_k6zv":"2",":@computed_region_m4y2_whse":"15",":@computed_region_dam5_q64j":"1040"}
,{"district_name":"Regional School District 05","name":"Amity Middle School: Bethany","organization_type":"Regional Schools","organization_code":"2055112","address":"190 Luke Hill Rd.","town":"Bethany","zipcode":"06524-3345","phone":"203-393-3102","prekindergarten":"0","kindergarten":"0","grade_1":"0","grade_2":"0","grade_3":"0","grade_4":"0","grade_5":"0","grade_6":"0","grade_7":"1","grade_8":"1","grade_9":"0","grade_10":"0","grade_11":"0","grade_12":"0","student_open_date":"2002-07-01T00:00:00.000","interdistrict_magnet":"0"}
,{"district_name":"Stamford School District","name":"Stamford High School","organization_type":"Public Schools","organization_code":"1356111","address":"55 Strawberry Hill Ave.","town":"Stamford","zipcode":"06902","phone":"203-977-4223","prekindergarten":"0","kindergarten":"0","grade_1":"0","grade_2":"0","grade_3":"0","grade_4":"0","grade_5":"0","grade_6":"0","grade_7":"0","grade_8":"0","grade_9":"1","grade_10":"1","grade_11":"1","grade_12":"1","student_open_date":"1984-07-01T00:00:00.000","interdistrict_magnet":"0","geocoded_column":{"latitude":"41.06212","longitude":"-73.53272","human_address":"{\"address\": \"55 Strawberry Hill Ave.\", \"city\": \"Stamford\", \"state\": \"CT\", \"zip\": \"06902\"}"},":@computed_region_nhmp_cq6b":"7",":@computed_region_snd5_k6zv":"9",":@computed_region_m4y2_whse":"135",":@computed_region_dam5_q64j":"1040"}
,{"district_name":"Norwalk School District","name":"Brookside Elementary School","organization_type":"Public Schools","organization_code":"1030211","address":"382 Highland Avenue","town":"Norwalk","zipcode":"06854-3423","phone":"203-899-2830","prekindergarten":"1","kindergarten":"1","grade_1":"1","grade_2":"1","grade_3":"1","grade_4":"1","grade_5":"1","grade_6":"0","grade_7":"0","grade_8":"0","grade_9":"0","grade_10":"0","grade_11":"0","grade_12":"0","student_open_date":"1984-07-01T00:00:00.000","interdistrict_magnet":"0"}
,{"district_name":"Wolcott School District","name":"Wolcott High School","organization_type":"Public Schools","organization_code":"1666111","address":"457 Bound Line Rd.","town":"Wolcott","zipcode":"06716-2007","phone":"203-879-8164","prekindergarten":"0","kindergarten":"0","grade_1":"0","grade_2":"0","grade_3":"0","grade_4":"0","grade_5":"0","grade_6":"0","grade_7":"0","grade_8":"0","grade_9":"1","grade_10":"1","grade_11":"1","grade_12":"1","student_open_date":"1984-07-01T00:00:00.000","interdistrict_magnet":"0","geocoded_column":{"latitude":"41.60667","longitude":"-72.97625","human_address":"{\"address\": \"457 Bound Line Rd.\", \"city\": \"Wolcott\", \"state\": \"CT\", \"zip\": \"06716-2007\"}"},":@computed_region_nhmp_cq6b":"252",":@computed_region_snd5_k6zv":"4",":@computed_region_m4y2_whse":"166",":@computed_region_dam5_q64j":"1044"}
,{"district_name":"East Hartford School District","name":"Governor William Pitkin School","organization_type":"Public Schools","organization_code":"0432011","address":"330 Hills St.","town":"East Hartford","zipcode":"06118-2910","phone":"860-622-5480","prekindergarten":"0","kindergarten":"1","grade_1":"1","grade_2":"1","grade_3":"1","grade_4":"1","grade_5":"1","grade_6":"0","grade_7":"0","grade_8":"0","grade_9":"0","grade_10":"0","grade_11":"0","grade_12":"0","student_open_date":"1984-07-01T00:00:00.000","interdistrict_magnet":"0","geocoded_column":{"latitude":"41.74206","longitude":"-72.59031","human_address":"{\"address\": \"330 Hills St.\", \"city\": \"East Hartford\", \"state\": \"CT\", \"zip\": \"06118-2910\"}"},":@computed_region_nhmp_cq6b":"24",":@computed_region_snd5_k6zv":"1",":@computed_region_m4y2_whse":"43",":@computed_region_dam5_q64j":"1041"}
,{"district_name":"Fairfield School District","name":"Roger Ludlowe Middle School","organization_type":"Public Schools","organization_code":"0515311","address":"689 Unquowa Rd.","town":"Fairfield","zipcode":"06824","phone":"203-255-8345","prekindergarten":"0","kindergarten":"0","grade_1":"0","grade_2":"0","grade_3":"0","grade_4":"0","grade_5":"0","grade_6":"1","grade_7":"1","grade_8":"1","grade_9":"0","grade_10":"0","grade_11":"0","grade_12":"0","student_open_date":"1998-07-01T00:00:00.000","interdistrict_magnet":"0","geocoded_column":{"latitude":"41.14975","longitude":"-73.26172","human_address":"{\"address\": \"689 Unquowa Rd.\", \"city\": \"Fairfield\", \"state\": \"CT\", \"zip\": \"06824\"}"},":@computed_region_nhmp_cq6b":"111",":@computed_region_snd5_k6zv":"2",":@computed_region_m4y2_whse":"51",":@computed_region_dam5_q64j":"1040"}
,{"district_name":"Regional School District 13","name":"John Lyman School","organization_type":"Regional Schools","organization_code":"2130512","address":"106 Way Rd.","town":"Middlefield","zipcode":"06455-1059","phone":"860-349-7240","prekindergarten":"0","kindergarten":"1","grade_1":"1","grade_2":"1","grade_3":"1","grade_4":"1","grade_5":"0","grade_6":"0","grade_7":"0","grade_8":"0","grade_9":"0","grade_10":"0","grade_11":"0","grade_12":"0","student_open_date":"2002-07-01T00:00:00.000","interdistrict_magnet":"0","geocoded_column":{"latitude":"41.5173","longitude":"-72.72618","human_address":"{\"address\": \"106 Way Rd.\", \"city\": \"Middlefield\", \"state\": \"CT\", \"zip\": \"06455-1059\"}"},":@computed_region_nhmp_cq6b":"238",":@computed_region_snd5_k6zv":"3",":@computed_region_m4y2_whse":"82",":@computed_region_dam5_q64j":"1043"}
,{"district_name":"Wilton School District","name":"Middlebrook School","organization_type":"Public Schools","organization_code":"1615211","address":"131 School Rd.","town":"Wilton","zipcode":"06897-2507","phone":"203-762-8388","prekindergarten":"0","kindergarten":"0","grade_1":"0","grade_2":"0","grade_3":"0","grade_4":"0","grade_5":"0","grade_6":"1","grade_7":"1","grade_8":"1","grade_9":"0","grade_10":"0","grade_11":"0","grade_12":"0","student_open_date":"1984-07-01T00:00:00.000","interdistrict_magnet":"0","geocoded_column":{"latitude":"41.2054","longitude":"-73.44206","human_address":"{\"address\": \"131 School Rd.\", \"city\": \"Wilton\", \"state\": \"CT\", \"zip\": \"06897-2507\"}"},":@computed_region_nhmp_cq6b":"212",":@computed_region_snd5_k6zv":"9",":@computed_region_m4y2_whse":"161",":@computed_region_dam5_q64j":"1040"}
,{"district_name":"Greenwich School District","name":"New Lebanon School","organization_type":"Public Schools","organization_code":"0570611","address":"25 Mead Ave.","town":"Greenwich","zipcode":"06830-6812","phone":"203-531-9139","prekindergarten":"1","kindergarten":"1","grade_1":"1","grade_2":"1","grade_3":"1","grade_4":"1","grade_5":"1","grade_6":"0","grade_7":"0","grade_8":"0","grade_9":"0","grade_10":"0","grade_11":"0","grade_12":"0","student_open_date":"1984-07-01T00:00:00.000","interdistrict_magnet":"0","geocoded_column":{"latitude":"41.0015","longitude":"-73.65602","human_address":"{\"address\": \"25 Mead Ave.\", \"city\": \"Greenwich\", \"state\": \"CT\", \"zip\": \"06830-6812\"}"},":@computed_region_nhmp_cq6b":"6",":@computed_region_snd5_k6zv":"9",":@computed_region_m4y2_whse":"57",":@computed_region_dam5_q64j":"2185"}
,{"district_name":"Regional School District 14","name":"Mitchell Elementary School","organization_type":"Regional Schools","organization_code":"2140212","address":"14 School St.","town":"Woodbury","zipcode":"06798-2842","phone":"203-263-4314","prekindergarten":"1","kindergarten":"1","grade_1":"1","grade_2":"1","grade_3":"1","grade_4":"1","grade_5":"1","grade_6":"0","grade_7":"0","grade_8":"0","grade_9":"0","grade_10":"0","grade_11":"0","grade_12":"0","student_open_date":"2002-07-01T00:00:00.000","interdistrict_magnet":"0"}
,{"district_name":"Ansonia School District","name":"Ansonia Middle School","organization_type":"Public Schools","organization_code":"0025111","address":"115 Howard Ave.","town":"Ansonia","zipcode":"06401","phone":"203-736-5070","prekindergarten":"0","kindergarten":"0","grade_1":"0","grade_2":"0","grade_3":"0","grade_4":"0","grade_5":"0","grade_6":"1","grade_7":"1","grade_8":"1","grade_9":"0","grade_10":"0","grade_11":"0","grade_12":"0","student_open_date":"1997-07-01T00:00:00.000","interdistrict_magnet":"0","geocoded_column":{"latitude":"41.34137","longitude":"-73.08388","human_address":"{\"address\": \"115 Howard Ave.\", \"city\": \"Ansonia\", \"state\": \"CT\", \"zip\": \"06401\"}"},":@computed_region_nhmp_cq6b":"102",":@computed_region_snd5_k6zv":"4",":@computed_region_m4y2_whse":"2",":@computed_region_dam5_q64j":"1044"}
,{"district_name":"Vernon School District","name":"Northeast School","organization_type":"Public Schools","organization_code":"1460311","address":"69 East St.","town":"Rockville","zipcode":"06066-3837","phone":"860-870-6080","prekindergarten":"1","kindergarten":"1","grade_1":"1","grade_2":"1","grade_3":"1","grade_4":"1","grade_5":"1","grade_6":"0","grade_7":"0","grade_8":"0","grade_9":"0","grade_10":"0","grade_11":"0","grade_12":"0","student_open_date":"1984-07-01T00:00:00.000","interdistrict_magnet":"0","geocoded_column":{"latitude":"41.86135","longitude":"-72.43169","human_address":"{\"address\": \"69 East St.\", \"city\": \"Rockville\", \"state\": \"CT\", \"zip\": \"06066-3837\"}"},":@computed_region_nhmp_cq6b":"248",":@computed_region_snd5_k6zv":"1",":@computed_region_m4y2_whse":"146",":@computed_region_dam5_q64j":"38"}
]
